公車到達時間,車站序號,車站名稱,車站編號,latitude,longitude
進站中,1,捷運松山機場,1149200210,25.061514,121.552622
4分鐘,2,塔悠路口,1149200170,25.060026,121.556431
5分鐘,3,民權敦化路口,1149200160,25.059093,121.558897
6分鐘,4,民權松江路口,1149200150,25.058000,121.562000
7分鐘,5,民權新生路口,1149200140,25.057000,121.565000
8分鐘,6,民權林森路口,1149200130,25.056000,121.568000
9分鐘,7,民權中山路口,1149200120,25.055000,121.571000
10分鐘,8,民權大同路口,1149200110,25.054000,121.574000
